[
    {
        "id": 1,
        "clientId": 1,
        "name": "Tokyo",
        "location": "Japan",
        "clockedIn": 9,
        "billing": 12589,
        "active": true,
        "address": "5-7-1 Shiba, Minato-ku, Tokyo 108-8001, Japan",
        "coords": { "lat": 35.6586, "lng": 139.7454 },
        "locationLat": 36.2048,
        "locationLng": 138.2529
    },
    {
        "id": 2,
        "clientId": 2,
        "name": "Kyoto",
        "location": "Japan",
        "clockedIn": 12,
        "billing": 56649,
        "active": true,
        "address": "11-1 Kamitoba Hokotate-cho, Minami-ku, Kyoto 601-8501, Japan",
        "coords": { "lat": 34.9669, "lng": 135.7556 },
        "locationLat": 36.2048,
        "locationLng": 138.2529
    },
    {
        "id": 3,
        "clientId": 3,
        "name": "Tokyo",
        "location": "Japan",
        "clockedIn": 10,
        "billing": 66589,
        "active": true,
        "address": "1 Chome-1-1 Nishishinagawa, Shinagawa City, Tokyo 141-0033, Japan",
        "coords": { "lat": 35.61487964458506, "lng": 139.73104859544063 },
        "locationLat": 36.2048,
        "locationLng": 138.2529
    },
    {
        "id": 4,
        "clientId": 4,
        "name": "Irvine",
        "location": "United States",
        "clockedIn": 5,
        "billing": 1875,
        "active": true,
        "address": "6400 Oak Canyon, Suite 100, Irvine, CA 92618, USA",
        "coords": { "lat": 33.6709, "lng": -117.7694 },
        "locationLat": 37.0902,
        "locationLng": -95.7129
    },
    {
        "id": 5,
        "clientId": 4,
        "name": "Redwood City",
        "location": "United States",
        "clockedIn": 3,
        "billing": 26885,
        "active": true,
        "address": "255 Shoreline Drive, Redwood City, CA 94065, USA",
        "coords": { "lat": 37.522, "lng": -122.259 },
        "locationLat": 37.0902,
        "locationLng": -95.7129
    },
    {
        "id": 6,
        "clientId": 5,
        "name": "Tokyo",
        "location": "Japan",
        "clockedIn": 8,
        "billing": 45000,
        "active": true,
        "address": "1-7-1 Konan, Minato-ku, Tokyo 108-0075, Japan",
        "coords": { "lat": 35.627, "lng": 139.7425 },
        "locationLat": 36.2048,
        "locationLng": 138.2529
    },
    {
        "id": 7,
        "clientId": 6,
        "name": "San Mateo",
        "location": "United States",
        "clockedIn": 7,
        "billing": 32000,
        "active": true,
        "address": "2207 Bridgepointe Pkwy, San Mateo, CA 94404, USA",
        "coords": { "lat": 37.561, "lng": -122.279 },
        "locationLat": 37.0902,
        "locationLng": -95.7129
    },
    {
        "id": 8,
        "clientId": 7,
        "name": "Redmond",
        "location": "United States",
        "clockedIn": 10,
        "billing": 58000,
        "active": true,
        "address": "1 Microsoft Way, Redmond, WA 98052, USA",
        "coords": { "lat": 47.6396, "lng": -122.1306 },
        "locationLat": 37.0902,
        "locationLng": -95.7129
    },
    {
        "id": 9,
        "clientId": 8,
        "name": "New York",
        "location": "United States",
        "clockedIn": 6,
        "billing": 15000,
        "active": true,
        "address": "119 West 24th Street, New York, NY 10011, USA",
        "coords": { "lat": 40.7439, "lng": -73.993 },
        "locationLat": 37.0902,
        "locationLng": -95.7129
    },
    {
        "id": 10,
        "clientId": 9,
        "name": "Redwood City",
        "location": "United States",
        "clockedIn": 11,
        "billing": 42000,
        "active": true,
        "address": "209 Redwood Shores Pkwy, Redwood City, CA 94065, USA",
        "coords": { "lat": 37.5228, "lng": -122.2561 },
        "locationLat": 37.0902,
        "locationLng": -95.7129
    },
    {
        "id": 11,
        "clientId": 10,
        "name": "Montreuil",
        "location": "France",
        "clockedIn": 9,
        "billing": 38000,
        "active": true,
        "address": "28 Rue Armand Carrel, 93100 Montreuil, France",
        "coords": { "lat": 48.864, "lng": 2.4433 },
        "locationLat": 46.6034,
        "locationLng": 1.8883
    },
    {
        "id": 12,
        "clientId": 11,
        "name": "Nagoya",
        "location": "Japan",
        "clockedIn": 7,
        "billing": 22000,
        "active": true,
        "address": "1-1-1 Sakae, Naka-ku, Nagoya, Aichi 460-0008, Japan",
        "coords": { "lat": 35.1709, "lng": 136.9086 },
        "locationLat": 36.2048,
        "locationLng": 138.2529
    },
    {
        "id": 13,
        "clientId": 12,
        "name": "Osaka",
        "location": "Japan",
        "clockedIn": 8,
        "billing": 35000,
        "active": true,
        "address": "2-4-1 Chuo-ku, Osaka 540-8511, Japan",
        "coords": { "lat": 34.6863, "lng": 135.5142 },
        "locationLat": 36.2048,
        "locationLng": 138.2529
    },
    {
        "id": 14,
        "clientId": 13,
        "name": "Tokyo",
        "location": "Japan",
        "clockedIn": 10,
        "billing": 47000,
        "active": true,
        "address": "9-7-2 Akasaka, Minato-ku, Tokyo 107-8324, Japan",
        "coords": { "lat": 35.6716, "lng": 139.7352 },
        "locationLat": 36.2048,
        "locationLng": 138.2529
    },
    {
        "id": 15,
        "clientId": 14,
        "name": "Montreal",
        "location": "Canada",
        "clockedIn": 12,
        "billing": 60000,
        "active": true,
        "address": "5505 boulevard St-Laurent, #2000, Montreal, Quebec, H2T 1S6, Canada",
        "coords": { "lat": 45.5267, "lng": -73.595 },
        "locationLat": 56.1304,
        "locationLng": -106.3468
    }
]